[
  {
    "id": "1",
    "name": "Ashburn Quante Square",
    "lat": "53.7266683",
    "lng": "-127.64762050000002",
	"time": "Thursday 11:30 AM",
    "category": "International Forum",
	"address": "235 United States, Virginia, Ashburn",
    "address2": "",
    "city": "Virginia",
    "state": "Ashburn",
    "postal": "35210",
    "phone": "205-956-1122",
    "web": "https:\/\/www.shivyog.com",
    "hours1": "Mon-Sun 11am-10pm",
    "hours2": "",
    "hours3": "",
    "featured": "",
    "features": "",
    "date": "10/17/18"
  },
  {
    "id": "2",
    "name": "Ashburn Quante Square",
    "lat": "49.17783610000001",
    "lng": "-122.66988579999997",
    "time": "Thursday 11:30 AM",
    "category": "International Forum",
	"address": "235 United States, Virginia, Ashburn",
    "address2": "",
    "city": "Virginia",
    "state": "Ashburn",
    "postal": "35210",
    "phone": "205-956-1122",
    "web": "https:\/\/www.shivyog.com",
    "hours1": "Mon-Sun 11am-10pm",
    "hours2": "",
    "hours3": "",
    "featured": "",
    "features": "",
    "date": "10/17/18"
  },
  {
    "id": "3",
    "name": "Ashburn Quante Square",
    "lat": "49.109430",
    "lng": "-122.686790",
    "time": "Thursday 11:30 AM",
    "category": "International Forum",
	"address": "235 United States, Virginia, Ashburn",
    "address2": "",
    "city": "Virginia",
    "state": "Ashburn",
    "postal": "35210",
    "phone": "205-956-1122",
    "web": "https:\/\/www.shivyog.com",
    "hours1": "Mon-Sun 11am-10pm",
    "hours2": "",
    "hours3": "",
    "featured": "",
    "features": "",
    "date": "10/17/18"
  },
  {
    "id": "4",
    "name": "Ashburn Quante Square",
    "lat": "44.691540",
    "lng": "-63.599651",
    "time": "Thursday 11:30 AM",
    "category": "International Forum",
	"address": "235 United States, Virginia, Ashburn",
    "address2": "",
    "city": "Virginia",
    "state": "Ashburn",
    "postal": "35210",
    "phone": "205-956-1122",
    "web": "https:\/\/www.shivyog.com",
    "hours1": "Mon-Sun 11am-10pm",
    "hours2": "",
    "hours3": "",
    "featured": "",
    "features": "",
    "date": "10/17/18"
  },
  {
    "id": "5",
    "name": "Ashburn Quante Square",
    "lat": "53.501498",
    "lng": "-113.4212761",
    "time": "Thursday 11:30 AM",
    "category": "International Forum",
	"address": "235 United States, Virginia, Ashburn",
    "address2": "",
    "city": "Virginia",
    "state": "Ashburn",
    "postal": "35210",
    "phone": "205-956-1122",
    "web": "https:\/\/www.shivyog.com",
    "hours1": "Mon-Sun 11am-10pm",
    "hours2": "",
    "hours3": "",
    "featured": "",
    "features": "",
    "date": "10/17/18"
  },
  {
    "id": "6",
    "name": "Ashburn Quante Square",
    "lat": "50.9962005",
    "lng": "-113.97491560000003",
    "time": "Thursday 11:30 AM",
    "category": "International Forum",
	"address": "235 United States, Virginia, Ashburn",
    "address2": "",
    "city": "Virginia",
    "state": "Ashburn",
    "postal": "35210",
    "phone": "205-956-1122",
    "web": "https:\/\/www.shivyog.com",
    "hours1": "Mon-Sun 11am-10pm",
    "hours2": "",
    "hours3": "",
    "featured": "",
    "features": "",
    "date": "10/17/18"
  },
  {
    "id": "7",
    "name": "Ashburn Quante Square",
    "lat": "53.574260",
    "lng": "-113.566940",
    "time": "Thursday 11:30 AM",
    "category": "International Forum",
	"address": "235 United States, Virginia, Ashburn",
    "address2": "",
    "city": "Virginia",
    "state": "Ashburn",
    "postal": "35210",
    "phone": "205-956-1122",
    "web": "https:\/\/www.shivyog.com",
    "hours1": "Mon-Sun 11am-10pm",
    "hours2": "",
    "hours3": "",
    "featured": "",
    "features": "",
    "date": "10/17/18"
  },
  {
    "id": "8",
    "name": "Ashburn Quante Square",
    "lat": "52.1650645",
    "lng": "-106.65650210000001",
    "time": "Thursday 11:30 AM",
    "category": "International Forum",
	"address": "235 United States, Virginia, Ashburn",
    "address2": "",
    "city": "Virginia",
    "state": "Ashburn",
    "postal": "35210",
    "phone": "205-956-1122",
    "web": "https:\/\/www.shivyog.com",
    "hours1": "Mon-Sun 11am-10pm",
    "hours2": "",
    "hours3": "",
    "featured": "",
    "features": "",
    "date": "10/17/18"
  },
  {
    "id": "9",
    "name": "Ashburn Quante Square",
    "lat": "49.9131575",
    "lng": "-97.21022099999999",
	"time": "Thursday 11:30 AM",
    "category": "International Forum",
	"address": "235 United States, Virginia, Ashburn",
    "address2": "",
    "city": "Virginia",
    "state": "Ashburn",
    "postal": "35210",
    "phone": "205-956-1122",
    "web": "https:\/\/www.shivyog.com",
    "hours1": "Mon-Sun 11am-10pm",
    "hours2": "",
    "hours3": "",
    "featured": "",
    "features": "",
    "date": "10/17/18"
  },
  {
    "id": "10",
    "name": "Ashburn Quante Square",
    "lat": "50.2948022",
    "lng": "-107.8081454",
    "time": "Thursday 11:30 AM",
    "category": "International Forum",
	"address": "235 United States, Virginia, Ashburn",
    "address2": "",
    "city": "Virginia",
    "state": "Ashburn",
    "postal": "35210",
    "phone": "205-956-1122",
    "web": "https:\/\/www.shivyog.com",
    "hours1": "Mon-Sun 11am-10pm",
    "hours2": "",
    "hours3": "",
    "featured": "",
    "features": "",
    "date": "10/17/18"
  },
  {
    "id": "11",
    "name": "Ashburn Quante Square",
    "lat": "53.5045733",
    "lng": "-113.43617210000002",
    "time": "Thursday 11:30 AM",
    "category": "International Forum",
	"address": "235 United States, Virginia, Ashburn",
    "address2": "",
    "city": "Virginia",
    "state": "Ashburn",
    "postal": "35210",
    "phone": "205-956-1122",
    "web": "https:\/\/www.shivyog.com",
    "hours1": "Mon-Sun 11am-10pm",
    "hours2": "",
    "hours3": "",
    "featured": "",
    "features": "",
    "date": "10/17/18"
  },
  {
    "id": "12",
    "name": "Ashburn Quante Square",
    "lat": "51.057166",
    "lng": "-93.75412599999999",
    "time": "Thursday 11:30 AM",
    "category": "International Forum",
	"address": "235 United States, Virginia, Ashburn",
    "address2": "",
    "city": "Virginia",
    "state": "Ashburn",
    "postal": "35210",
    "phone": "205-956-1122",
    "web": "https:\/\/www.shivyog.com",
    "hours1": "Mon-Sun 11am-10pm",
    "hours2": "",
    "hours3": "",
    "featured": "",
    "features": "",
    "date": "10/17/18"
  },
  {
    "id": "13",
    "name": "Ashburn Quante Square",
    "lat": "43.2484365",
    "lng": "-79.77862349999998",
    "time": "Thursday 11:30 AM",
    "category": "International Forum",
	"address": "235 United States, Virginia, Ashburn",
    "address2": "",
    "city": "Virginia",
    "state": "Ashburn",
    "postal": "35210",
    "phone": "205-956-1122",
    "web": "https:\/\/www.shivyog.com",
    "hours1": "Mon-Sun 11am-10pm",
    "hours2": "",
    "hours3": "",
    "featured": "",
    "features": "",
    "date": "10/17/18"
  },
  {
    "id": "14",
    "name": "Ashburn Quante Square",
    "lat": "42.832554",
    "lng": "-80.09950600000002",
    "time": "Thursday 11:30 AM",
    "category": "International Forum",
	"address": "235 United States, Virginia, Ashburn",
    "address2": "",
    "city": "Virginia",
    "state": "Ashburn",
    "postal": "35210",
    "phone": "205-956-1122",
    "web": "https:\/\/www.shivyog.com",
    "hours1": "Mon-Sun 11am-10pm",
    "hours2": "",
    "hours3": "",
    "featured": "",
    "features": "",
    "date": "10/17/18"
  }
]
